place_name,latitude,longitude,destination_city
Marina Beach,13.0534,80.2834,Chennai
Elliot's Beach,12.9995,80.2724,Chennai
Besant Nagar Beach,12.9996,80.2682,Chennai
Thiruvanmiyur Beach,12.9816,80.2608,Chennai
Covelong Beach,12.7922,80.2546,Chennai
Neelankarai Beach,12.9492,80.2589,Chennai
Breezy Beach,13.0078,80.2792,Chennai
Palavakkam Beach,12.9621,80.2541,Chennai
Injambakkam Beach,12.9102,80.2479,Chennai
Santhome Beach,13.0338,80.2778,Chennai
Olcott Memorial Beach,13.0425,80.2801,Chennai
Broken Bridge Beach,13.0401,80.2814,Chennai
Bharathi Nagar Beach,13.0456,80.2825,Chennai
Kapaleeshwarar Temple,13.0337,80.2698,Chennai
Parthasarathy Temple,13.0351,80.2734,Chennai
Vadapalani Murugan Temple,13.0512,80.2125,Chennai
Ashtalakshmi Temple,12.9991,80.2726,Chennai
Marundeeswarar Temple,13.0385,80.2421,Chennai
Shirdi Sai Baba Temple,13.0445,80.2231,Chennai
Kandaswamy Temple,13.0445,80.2214,Chennai
Adyar Shiva Temple,13.0001,80.2574,Chennai
Thiruvalluvar Temple,13.0821,80.2782,Chennai
Kalikambal Temple,13.0855,80.2796,Chennai
Mahabalipuram Shore Temple,12.6169,80.1977,Chennai
Santhome Cathedral Basilica,13.0338,80.2778,Chennai
San Thome Church,13.0338,80.2778,Chennai
Luz Church,13.0321,80.2584,Chennai
St. Mary's Church,13.0815,80.2882,Chennai
Fort St. George Museum,13.0795,80.2874,Chennai
Government Museum,13.0714,80.2565,Chennai
DakshinaChitra Museum,12.8172,80.2442,Chennai
Gandhi Mandapam,13.0521,80.2812,Chennai
Vivekananda House,13.0352,80.2741,Chennai
Birla Planetarium,13.0608,80.2453,Chennai
Egmore Museum Complex,13.0714,80.2565,Chennai
Ayurveda College Museum,13.0312,80.2654,Chennai
Guindy National Park,13.0071,80.2263,Chennai
Semmozhi Poonga,13.0602,80.2462,Chennai
Nageswara Rao Park,13.0321,80.2684,Chennai
Theosophical Society,13.0024,80.2611,Chennai
Arignar Anna Zoological Park,12.8892,80.0812,Chennai
Madras Crocodile Bank,12.7458,80.2338,Chennai
Express Avenue Mall,13.0591,80.2614,Chennai
Phoenix Marketcity,13.0107,80.2207,Chennai
Forum Vijaya Mall,13.0152,80.2331,Chennai
Spencer Plaza,13.0625,80.2692,Chennai
Ampa Skywalk Mall,13.0612,80.2102,Chennai
VR Chennai,13.0001,80.2558,Chennai
Chennai Citi Centre,13.0318,80.2154,Chennai
Grand Square Mall,13.0207,80.2218,Chennai
Alsa Mall,13.0651,80.2124,Chennai
Pondy Bazaar,13.0512,80.2402,Chennai
Parrys Corner Market,13.0892,80.2814,Chennai
Sowcarpet Market,13.0921,80.2784,Chennai
Ranganathan Street,13.0448,80.2342,Chennai
T Nagar Shopping District,13.0407,80.2341,Chennai
Fort St George,13.0795,80.2874,Chennai
Valluvar Kottam,13.0521,80.2345,Chennai
Ripon Building,13.0802,80.2792,Chennai
High Court Building,13.0812,80.2881,Chennai
Connemara Public Library,13.0714,80.2571,Chennai
George Town Heritage Area,13.0895,80.2825,Chennai
Mylapore Heritage Walk,13.0337,80.2698,Chennai
Anna Memorial,13.0532,80.2851,Chennai
MGR Memorial,13.0542,80.2865,Chennai
Arjuna's Penance,12.6189,80.1922,Chennai
Five Rathas,12.6192,80.1925,Chennai
MGR Film City,13.0124,80.2381,Chennai
Snow Kingdom,13.0112,80.2192,Chennai
Kishkinta Theme Park,12.8501,80.0421,Chennai
VGP Marine Kingdom,12.9721,80.2541,Chennai
VGP Universal Kingdom,12.9721,80.2551,Chennai
Saravana Bhavan,13.0621,80.2612,Chennai
Murugan Idli Shop,13.0381,80.2412,Chennai
Buhari Hotel,13.0842,80.2795,Chennai
Annalakshmi Restaurant,13.0008,80.2591,Chennai
Madras Coffee House,13.0381,80.2402,Chennai
Cafe Madras,13.0448,80.2332,Chennai
Gokulam Restaurant,13.0512,80.2392,Chennai
Sangeetha Restaurant,13.0591,80.2614,Chennai
Adyar Ananda Bhavan,13.0015,80.2581,Chennai
Ratna Cafe,13.0384,80.2452,Chennai
Woodlands Drive-In,13.0421,80.2362,Chennai
Amethyst Cafe,13.0335,80.2578,Chennai
The Flying Elephant,13.0624,80.2701,Chennai
Copper Chimney,13.0612,80.2452,Chennai
Dakshin Restaurant,13.0024,80.2591,Chennai
Pumpkin Tales,13.0642,80.2642,Chennai
Naturally Auroville,13.0321,80.2564,Chennai
Chamiers Cafe,13.0312,80.2542,Chennai
Tuscana Pizzeria,13.0624,80.2642,Chennai
Writers Cafe,13.0638,80.2684,Chennai
The Brew Room,13.0601,80.2631,Chennai
Ciclo Cafe,13.0321,80.2584,Chennai
Kasi Theatre Coffee,13.0291,80.2512,Chennai
Kalakshetra Foundation,13.0084,80.2592,Chennai
Cholamandal Artists Village,12.9045,80.2421,Chennai
Kalakendra Art Gallery,13.0291,80.2545,Chennai
Muttukadu Boat House,12.8124,80.2362,Chennai
Bay of Life Water Sports,12.9991,80.2732,Chennai
Thiruthani Murugan Temple,13.1758,79.6109,Tiruvallur
Veeraraghava Perumal Temple,13.1421,79.9084,Tiruvallur
Sri Vadaranyeswarar Temple,13.1445,79.9124,Tiruvallur
Panchamukha Anjaneyar Temple,13.1478,79.9142,Tiruvallur
Siruvapuri Balamurugan Temple,13.1812,79.6245,Tiruvallur
Vaseeswarar Temple Thirupachur,13.1521,79.9214,Tiruvallur
Bhaktavatsala Perumal Temple,13.1412,79.9052,Tiruvallur
Oondreeswarar Shiva Temple,13.1485,79.9165,Tiruvallur
Masilamaniswara Temple,13.1398,79.9121,Tiruvallur
Kadambathur Murugan Temple,13.2142,79.7845,Tiruvallur
Thyagaraja Temple Thiruvottiyur,13.1621,80.3012,Tiruvallur
Sri Veera Anjaneya Temple,13.1442,79.9102,Tiruvallur
Jagannatha Perumal Temple,13.1512,79.9184,Tiruvallur
Bhavani Amman Temple Periyapalayam,13.1652,79.8945,Tiruvallur
Devadhanam Temple,13.1521,79.9242,Tiruvallur
Sri Beteraya Swamy Temple,13.1412,79.9074,Tiruvallur
Pulicat Lake,13.5658,80.1747,Tiruvallur
Pulicat Bird Sanctuary,13.5512,80.1812,Tiruvallur
Poondi Reservoir,13.185,79.86,Tiruvallur
Chembarambakkam Lake,13.0421,79.9512,Tiruvallur
Ponneri Lake,13.3412,80.1845,Tiruvallur
Red Hills Lake,13.1621,80.2142,Tiruvallur
Pulicat Lagoon Boat Ride,13.5521,80.1754,Tiruvallur
Ponneri Beach,13.3521,80.2142,Tiruvallur
Kattupalli Beach,13.2145,80.3012,Tiruvallur
Ennore Beach,13.2412,80.3142,Tiruvallur
Pulicat Beach,13.4254,80.3212,Tiruvallur
Gudiyam Caves,13.1912,79.7542,Tiruvallur
Dutch Cemetery Pulicat,13.4185,80.3195,Tiruvallur
Dutch Church Pulicat,13.4177,80.3185,Tiruvallur
Ponneri Fort,13.3354,80.1921,Tiruvallur
Pulicat Lighthouse,13.4212,80.3201,Tiruvallur
Queensland Amusement Park,13.1524,79.9312,Tiruvallur
Peria Puliyur Forest,13.2812,79.8421,Tiruvallur
Community Park Tiruvallur,13.1438,79.9102,Tiruvallur
Vetri Garden Free Park,13.1421,79.9124,Tiruvallur
Suncity Park,13.1445,79.9142,Tiruvallur
Ngo Colony Park,13.1412,79.9085,Tiruvallur
Poondi Madha Basilica,13.1865,79.8624,Tiruvallur
St. Anthony's Church Ponneri,13.3342,80.1912,Tiruvallur
Sacred Heart Church Tiruvallur,13.1425,79.9095,Tiruvallur
Tiruvallur Main Market,13.1438,79.9105,Tiruvallur
Ponneri Local Market,13.3345,80.1924,Tiruvallur
Gummidipundi Market,13.4012,80.1124,Tiruvallur
Thiruthani Market Street,13.1742,79.6121,Tiruvallur
Anjappar Chettinad Restaurant,13.1442,79.9112,Tiruvallur
Saravana Bhavan Tiruvallur,13.1445,79.9108,Tiruvallur
Hotel Aryaas,13.1438,79.9098,Tiruvallur
Murugan Idli Shop Tiruvallur,13.1421,79.9115,Tiruvallur
SS Hyderabad Biryani,13.1452,79.9121,Tiruvallur
Thiruthani Darshini Restaurant,13.1754,79.6115,Tiruvallur
Ponneri Hotel Annapoorna,13.3338,80.1918,Tiruvallur
Gummidipundi Sangeetha Restaurant,13.4008,80.1118,Tiruvallur
A2B - Adyar Ananda Bhavan,13.1448,79.9102,Tiruvallur
Cafe Coffee Day Tiruvallur,13.1435,79.9118,Tiruvallur
Pulicat Fishing Experience,13.4165,80.3178,Tiruvallur
Ponneri Lake Boating,13.3421,80.1852,Tiruvallur
Pulicat Flamingo Watching,13.5542,80.1785,Tiruvallur
Ponneri Fish Market,13.3351,80.1915,Tiruvallur
Pulicat Village Heritage Walk,13.4182,80.3188,Tiruvallur
Tiruvallur Cultural Center,13.1442,79.9125,Tiruvallur
Poondi Dam Viewpoint,13.1862,79.8615,Tiruvallur
Red Hills Lake Viewpoint,13.1628,80.2152,Tiruvallur
Pulicat Sunset Point,13.4195,80.3198,Tiruvallur
Chembarambakkam Lake Viewpoint,13.0428,79.9521,Tiruvallur
Sri Lakshmi Narasimha Swamy Temple,13.1465,79.9145,Tiruvallur
Kailasanathar Temple,13.1412,79.9065,Tiruvallur
Arulmigu Mariamman Temple,13.1454,79.9135,Tiruvallur
Vinayagar Temple Ponneri,13.3348,80.1921,Tiruvallur
Tiruvallur Shopping Complex,13.1445,79.9112,Tiruvallur
Ponneri Textile Market,13.3342,80.1928,Tiruvallur
Kamakshi Amman Temple,12.8403,79.703,Kanchipuram
Ekambareswarar Temple,12.8469,79.7,Kanchipuram
Varadharaja Perumal Temple,12.8392,79.7014,Kanchipuram
Kailasanathar Temple,12.8484,79.6985,Kanchipuram
Ulagalantha Perumal Temple,12.8375,79.7045,Kanchipuram
Vaikunda Perumal Temple,12.8412,79.7021,Kanchipuram
Kumarakottam Temple,12.8421,79.7035,Kanchipuram
Shore Temple Mahabalipuram,12.6164,80.1986,Kanchipuram
Thirukacchi Ekambam Temple,12.8398,79.7052,Kanchipuram
Kachapeswarar Temple,12.8385,79.7028,Kanchipuram
Pancha Rathas,12.6195,80.1925,Kanchipuram
Arjuna's Penance,12.6189,80.1922,Kanchipuram
Krishna's Butterball,12.6201,80.1915,Kanchipuram
Mahabalipuram Open Air Museum,12.6178,80.1932,Kanchipuram
Tiger Cave Mahabalipuram,12.6421,80.2012,Kanchipuram
Mahishasuramardini Cave,12.6185,80.1928,Kanchipuram
Varaha Cave Temple,12.6192,80.1935,Kanchipuram
Mahabalipuram Beach,12.6175,80.1995,Kanchipuram
Covelong Beach,12.7922,80.2546,Kanchipuram
Silver Beach Mahabalipuram,12.6182,80.1998,Kanchipuram
Sadras Beach,12.5521,80.1142,Kanchipuram
Kanchipuram Silk Saree Market,12.8381,79.7042,Kanchipuram
Kanchipuram Co-operative Silk Society,12.8392,79.7025,Kanchipuram
Gandhi Road Shopping Street,12.8412,79.7015,Kanchipuram
Kanchipuram Silk Weaving Center,12.8425,79.7038,Kanchipuram
Mahabalipuram Handicrafts Market,12.6185,80.1945,Kanchipuram
Kanchi Kudil Heritage House,12.8395,79.7048,Kanchipuram
DakshinaChitra Museum,12.8172,80.2442,Kanchipuram
India Seashell Museum Mahabalipuram,12.6192,80.1952,Kanchipuram
Vedanthangal Bird Sanctuary,12.5456,79.8558,Kanchipuram
Madras Crocodile Bank,12.7458,80.2338,Kanchipuram
Muttukadu Backwaters,12.8124,80.2362,Kanchipuram
Muttukadu Boat House,12.8124,80.2362,Kanchipuram
Kanchi Kamakoti Peetham,12.8408,79.7035,Kanchipuram
Adhi Varaha Perumal Temple,12.8365,79.7055,Kanchipuram
Pandava Dootha Perumal Temple,12.8442,79.7018,Kanchipuram
Saravana Bhavan Kanchipuram,12.8385,79.7032,Kanchipuram
Hotel Saravana Bhavan Mahabalipuram,12.6178,80.1942,Kanchipuram
Moonrakers Mahabalipuram,12.6192,80.1965,Kanchipuram
Le Yogi Mahabalipuram,12.6185,80.1958,Kanchipuram
Mamalla Bhavan,12.6175,80.1948,Kanchipuram
Sea Shore Garden Restaurant,12.6168,80.1982,Kanchipuram
Covelong Point Surf School,12.7928,80.2552,Kanchipuram
Mahabalipuram Water Sports Center,12.6182,80.1992,Kanchipuram
Parasailing at Mahabalipuram,12.6178,80.1988,Kanchipuram
Kanchipuram Town Park,12.8395,79.7022,Kanchipuram
Mahabalipuram Beach Park,12.6172,80.1985,Kanchipuram
Lighthouse Mahabalipuram,12.6212,80.2001,Kanchipuram
Mahabalipuram Sunset Point,12.6158,80.1992,Kanchipuram
Covelong Beach Sunset View,12.7935,80.2558,Kanchipuram
Sri Lakshmi Narayani Golden Temple,12.8733,79.0881,Vellore
Jalakandeswarar Temple,12.9206,79.1279,Vellore
Ratnagiri Murugan Temple,12.8965,79.1542,Vellore
Virinjipuram Temple,12.9142,79.1385,Vellore
Margabandeeswarar Temple,12.9185,79.1312,Vellore
Sathuvachari Murugan Temple,12.9312,79.1452,Vellore
St. John's Church,12.9198,79.1298,Vellore
Big Mosque Vellore Fort,12.9203,79.1276,Vellore
Vellore Fort,12.9206,79.1279,Vellore
Archaeological Survey Museum Vellore,12.9208,79.1282,Vellore
Government Museum Vellore,12.9178,79.1335,Vellore
Tipu Sultan's Mosque,12.9201,79.1274,Vellore
Yelagiri Hills,12.5796,78.6399,Vellore
Swamimalai Hills Yelagiri,12.5821,78.6412,Vellore
Jalagamparai Waterfalls,12.5645,78.6245,Vellore
Punganur Lake Yelagiri,12.5812,78.6385,Vellore
Amirthi Zoological Park,12.7845,79.0512,Vellore
Amirthi Forest,12.7821,79.0485,Vellore
Palamathi Hills,12.5912,78.6542,Vellore
Kavalur Observatory,12.5762,78.8265,Vellore
Periyar Park,12.9185,79.1342,Vellore
Science Park Vellore,12.9212,79.1365,Vellore
Botanical Garden Yelagiri,12.5785,78.6378,Vellore
Rose Garden Yelagiri,12.5798,78.6392,Vellore
Yelagiri Adventure Camp,12.5805,78.6405,Vellore
Paragliding at Yelagiri,12.5842,78.6421,Vellore
Trekking at Yelagiri,12.5832,78.6415,Vellore
Zip Line Yelagiri,12.5815,78.6408,Vellore
Boating at Punganur Lake,12.5812,78.6385,Vellore
Main Bazaar Vellore,12.9195,79.1325,Vellore
VIT Market Complex,12.9685,79.1558,Vellore
Gandhi Road Shopping,12.9182,79.1318,Vellore
Yelagiri Handicrafts Market,12.5795,78.6395,Vellore
Darling Restaurant Vellore,12.9188,79.1328,Vellore
Saravana Bhavan Vellore,12.9192,79.1332,Vellore
The Vellore Kitchen,12.9178,79.1342,Vellore
Alankar Virundhu,12.9185,79.1335,Vellore
Sai Sangeet Restaurant,12.9198,79.1345,Vellore
Yelagiri Lake View Cafe,12.5808,78.6388,Vellore
Hotel Aryaas Vellore,12.9175,79.1338,Vellore
Peter England Bakery,12.9182,79.1325,Vellore
Yelagiri Viewpoint,12.5845,78.6425,Vellore
Telescope Observatory Yelagiri,12.5822,78.6412,Vellore
Sunset Point Yelagiri,12.5852,78.6432,Vellore
CMC Vellore Campus Tour,12.9254,79.1312,Vellore
VIT University Campus,12.9685,79.1558,Vellore
Silk Farm Yelagiri,12.5782,78.6372,Vellore
Nilavoor Lake,12.5521,78.6142,Vellore
Vellore Nature Park,12.9165,79.1352,Vellore
Fundera Park Vellore,12.9212,79.1372,Vellore
Shore Temple Mahabalipuram,12.6164,80.1986,Chengalpattu
Vedagiriswarar Temple Thirukalukundram,12.6067,80.0625,Chengalpattu
Kandhaswamy Temple Tirupporur,12.7521,80.1842,Chengalpattu
Nithya Kalyana Perumal Temple,12.6921,79.9821,Chengalpattu
Srinivasa Perumal Temple Semmanjeri,12.8142,80.0521,Chengalpattu
Tiruvidanthai Lakshmi Narasimha Temple,12.8245,80.1685,Chengalpattu
Vallam Hill Cave Temple,12.6512,79.9412,Chengalpattu
Sthalasayana Perumal Temple,12.6854,79.9745,Chengalpattu
Pancha Rathas,12.6195,80.1925,Chengalpattu
Arjuna's Penance,12.6189,80.1922,Chengalpattu
Krishna's Butter Ball,12.6201,80.1915,Chengalpattu
Tiger Cave Mahabalipuram,12.6421,80.2012,Chengalpattu
Varaha Cave Temple,12.6192,80.1935,Chengalpattu
Mahishasuramardini Cave,12.6185,80.1928,Chengalpattu
Alamparai Fort,12.2659,80.0101,Chengalpattu
Sadras Fort,12.5421,80.1145,Chengalpattu
Mahabalipuram Beach,12.6175,80.1995,Chengalpattu
Kovalam Beach,12.7885,80.2521,Chengalpattu
Mudaliarkuppam Beach,12.6542,80.2145,Chengalpattu
Covelong Beach,12.7922,80.2546,Chengalpattu
Arignar Anna Zoological Park Vandalur,12.8892,80.0812,Chengalpattu
Madras Crocodile Bank,12.7458,80.2338,Chengalpattu
Vedanthangal Bird Sanctuary,12.5456,79.8558,Chengalpattu
Karikili Bird Sanctuary,12.5678,79.8812,Chengalpattu
Muttukadu Boat House,12.8124,80.2362,Chengalpattu
Muttukadu Backwaters,12.8124,80.2362,Chengalpattu
Mudaliarkuppam Boat House,12.6548,80.2152,Chengalpattu
Kovalam Lake,12.7892,80.2485,Chengalpattu
DakshinaChitra Museum,12.8172,80.2442,Chengalpattu
India Seashell Museum,12.6192,80.1952,Chengalpattu
Sculpture Museum Mahabalipuram,12.6182,80.1945,Chengalpattu
MGM Dizzee World,12.9421,79.9812,Chengalpattu
Mayajaal Multiplex,12.9142,80.2285,Chengalpattu
Mahabalipuram Handicrafts Market,12.6185,80.1945,Chengalpattu
Stone Sculpture Shops Mahabalipuram,12.6178,80.1938,Chengalpattu
Chengalpattu Main Market,12.6939,79.9762,Chengalpattu
Moonrakers Mahabalipuram,12.6192,80.1965,Chengalpattu
Le Yogi Mahabalipuram,12.6185,80.1958,Chengalpattu
Mamalla Bhavan,12.6175,80.1948,Chengalpattu
Sea Shore Garden Restaurant,12.6168,80.1982,Chengalpattu
Saravana Bhavan Chengalpattu,12.6935,79.9758,Chengalpattu
Hotel Aryaas Chengalpattu,12.6942,79.9765,Chengalpattu
Covelong Point Surf School,12.7928,80.2552,Chengalpattu
Mahabalipuram Water Sports,12.6182,80.1992,Chengalpattu
Mahabalipuram Lighthouse,12.6212,80.2001,Chengalpattu
Mahabalipuram Sunset Point,12.6158,80.1992,Chengalpattu
Kovalam Beach Sunset View,12.7892,80.2528,Chengalpattu
Chengalpattu Town Park,12.6945,79.9772,Chengalpattu
Mahabalipuram Beach Park,12.6172,80.1985,Chengalpattu
Cholamandal Artists Village,12.9045,80.2421,Chengalpattu
Gingee Fort,12.2501,79.3948,Villupuram
Kalyana Mahal Gingee,12.2495,79.3942,Villupuram
Rajagiri Fort,12.2512,79.3955,Villupuram
Krishnagiri Fort Gingee,12.2485,79.3935,Villupuram
Auroville Matrimandir,12.0072,79.8107,Villupuram
Auroville Beach,12.0045,79.8185,Villupuram
Savitri Bhavan Auroville,12.0065,79.8095,Villupuram
Sadhana Forest Auroville,12.0125,79.8212,Villupuram
Quiet Healing Centre Auroville,12.0058,79.8102,Villupuram
Botanical Garden Auroville,12.0082,79.8118,Villupuram
Venugopala Swamy Temple,11.9385,79.4852,Villupuram
Mailam Murugan Temple,11.8512,79.3142,Villupuram
Thiruvamathur Chola Temple,11.9812,79.5421,Villupuram
Melmalaiyanur Angalamman Temple,12.0821,79.3542,Villupuram
Venkataramana Temple Gingee,12.2492,79.3952,Villupuram
Panchavati Panchamukha Anjaneyar Temple,12.2488,79.3945,Villupuram
Lakshmi Narasimha Swamy Temple,11.9421,79.4885,Villupuram
Ranganatha Temple Gingee,12.2498,79.3958,Villupuram
National Fossil Wood Park Tiruvakkarai,12.1512,79.4312,Villupuram
Kalvarayan Hills,11.8521,78.9842,Villupuram
Ousteri Lake,11.9745,79.7542,Villupuram
Pichavaram Mangrove Forest,11.4558,79.7747,Villupuram
Marakkanam Beach,12.1854,79.9512,Villupuram
Serenity Beach Auroville,12.0038,79.8192,Villupuram
Auroville Beach Sunrise Point,12.0042,79.8188,Villupuram
Dalavanur Rock Cut Temple,12.1821,79.4142,Villupuram
Mandagapattu Rock Temple,12.2145,79.5212,Villupuram
Panamalai Cave Temple,12.2812,79.4521,Villupuram
Jain Caves Sirukadambur,12.2021,79.4842,Villupuram
Villupuram Main Market,11.9398,79.4865,Villupuram
Auroville Boutiques,12.0068,79.8112,Villupuram
Gingee Market Street,12.2485,79.3962,Villupuram
Marc's Cafe Auroville,12.0075,79.8115,Villupuram
Tanto Pizzeria Auroville,12.0062,79.8108,Villupuram
Bread & Chocolate Auroville,12.007,79.811,Villupuram
Well Cafe Auroville,12.0065,79.8105,Villupuram
Saravana Bhavan Villupuram,11.9392,79.4868,Villupuram
Hotel Aryaas Villupuram,11.9405,79.4872,Villupuram
Solar Kitchen Auroville,12.0078,79.8118,Villupuram
Auroville Visitors Centre,12.0085,79.8125,Villupuram
Mangala Buddha Vihar,12.0052,79.8092,Villupuram
Adishakti Theatre Arts Auroville,12.0088,79.8132,Villupuram
Kalvarayan Hills Trekking,11.8515,78.9835,Villupuram
Pichavaram Boat Ride,11.4558,79.7747,Villupuram
Villupuram Town Park,11.9412,79.4878,Villupuram
Auroville Youth Center,12.0092,79.8138,Villupuram
Gingee Prisoners Well,12.2502,79.3945,Villupuram
Saad-at-allah Khan Mosque,12.2492,79.395,Villupuram
Marakkanam Salt Pans,12.1865,79.9525,Villupuram
Matrimandir Viewing Point,12.0068,79.8105,Villupuram
Krishnagiri Fort,12.5198,78.2145,Krishnagiri
Rayakottah Fort,12.3521,78.1842,Krishnagiri
Krishnagiri Government Museum,12.5185,78.2135,Krishnagiri
Shree Parshwa Padmavathi Shaktipeet,12.7342,77.8285,Krishnagiri
Sri Kattu Veera Anjaneya Temple,12.5212,78.2152,Krishnagiri
Chandra Choodeswarar Temple Hosur,12.7385,77.8312,Krishnagiri
Dakshina Tirupati Temple,12.7362,77.8298,Krishnagiri
Arulmigu Maragathamigai Temple,12.5195,78.2142,Krishnagiri
Ganesh Temple Krishnagiri Fort,12.5202,78.2148,Krishnagiri
Narasimha Temple Krishnagiri,12.5178,78.2125,Krishnagiri
Pettaraya Swamy Temple,12.5165,78.2115,Krishnagiri
Jain Basadi Krishnagiri,12.5192,78.2138,Krishnagiri
Krishnagiri Dam,12.5142,78.2245,Krishnagiri
KRP Dam Park,12.5145,78.2252,Krishnagiri
Kelavarapalli Dam,12.4512,78.1642,Krishnagiri
Thally Reservoir,12.4821,78.0545,Krishnagiri
Anchetty Dam,12.2845,77.9512,Krishnagiri
Javadi Hills,12.4842,78.8421,Krishnagiri
Aiyur Eco Tourism Park,12.5621,78.2842,Krishnagiri
Thally Garden,12.4815,78.0552,Krishnagiri
Berigai Viewpoint,12.6512,78.3142,Krishnagiri
Doddametrai River Temple,12.5321,78.2512,Krishnagiri
Hogenakkal Falls,12.1182,77.7739,Krishnagiri
Palacode Waterfalls,12.3212,78.4521,Krishnagiri
Muthanallur Lake,12.5512,78.2645,Krishnagiri
Avathanapatti Lake,12.5785,78.2912,Krishnagiri
Krishnagiri Rose Garden,12.5172,78.2128,Krishnagiri
Hosur Deer Park,12.7312,77.8245,Krishnagiri
Brahma Hills Park,12.7421,77.8385,Krishnagiri
Kelavarapalli Rock Garden,12.4521,78.1652,Krishnagiri
Krishnagiri Mango Market,12.5182,78.2142,Krishnagiri
Hosur Main Market,12.7358,77.8298,Krishnagiri
Krishnagiri Central Market,12.5188,78.2138,Krishnagiri
Saravana Bhavan Krishnagiri,12.5185,78.2135,Krishnagiri
Hotel Aryaas Krishnagiri,12.5192,78.2145,Krishnagiri
Adiga's Restaurant Hosur,12.7348,77.8292,Krishnagiri
Highway King Dhaba,12.6512,78.0842,Krishnagiri
Barbeque Nation Hosur,12.7365,77.8305,Krishnagiri
A2B Adyar Ananda Bhavan Hosur,12.7352,77.8288,Krishnagiri
Sangeetha Restaurant Krishnagiri,12.5178,78.2132,Krishnagiri
Hogenakkal Coracle Boat Ride,12.1185,77.7742,Krishnagiri
Javadi Hills Trekking,12.4835,78.8415,Krishnagiri
Hosur Industrial Tour,12.7385,77.8325,Krishnagiri
Dennakottai Valley,12.3842,78.5212,Krishnagiri
Hanuman Thirtham,12.5321,78.2645,Krishnagiri
Krishnagiri Rose Garden Night View,12.5172,78.2128,Krishnagiri
Hosur Clock Tower,12.7345,77.8295,Krishnagiri
Anchetty Forest Reserve,12.2812,77.9485,Krishnagiri
Kaveri Pattinm Temple,12.1245,77.7812,Krishnagiri
Thally Children's Park,12.4818,78.0548,Krishnagiri
Thindal Murugan Temple,11.3172,77.6764,Erode
Chennimalai Murugan Temple,11.1676,77.6042,Erode
Bannari Amman Temple,11.5421,77.3512,Erode
Bhavani Sangameswarar Temple,11.4421,77.6785,Erode
Periya Mariamman Temple,11.3385,77.7245,Erode
Arudra Kabaliswarar Temple,11.3412,77.7298,Erode
Nattatreswaran Temple,11.3395,77.7265,Erode
Kodumudi Temples (Magudeshwarar & Veeranarayana),11.0785,77.8845,Erode
Pariyur Kondathu Kaliamman Temple,11.2512,77.5842,Erode
Kasthuri Ranganathar Temple,11.3408,77.7285,Erode
Bhavanisagar Dam,11.4342,77.0692,Erode
Kodiveri Dam,11.5121,77.1842,Erode
Kalingarayan Anicut,11.0521,77.8312,Erode
Lower Bhavani Project Dam,11.4512,77.6542,Erode
Kunderipallam Dam,11.3521,77.2842,Erode
Kodiveri Waterfalls,11.5125,77.1848,Erode
Kunderipallam Waterfalls,11.3518,77.2838,Erode
Anthiyur Lake Waterfalls,11.5742,77.5912,Erode
Bhavani Kuttralam Falls,11.4312,77.6512,Erode
Sathyamangalam Wildlife Sanctuary,11.5045,77.2545,Erode
Vellode Bird Sanctuary,11.1142,77.4512,Erode
Bhavani Sagar Wildlife Sanctuary,11.4512,77.0812,Erode
Sidheshwara Hills,11.5512,77.3842,Erode
Bannari Viewpoint,11.5435,77.3525,Erode
Bhalammalai Hills,11.6012,77.4142,Erode
Erode Fort,11.3421,77.7285,Erode
Erode Government Museum,11.3415,77.7278,Erode
VOC Park Erode,11.3432,77.7295,Erode
Periya Kalyana Mandapam Park,11.3428,77.7288,Erode
Erode Children's Park,11.3438,77.7302,Erode
Cauvery Botanical Garden,11.3445,77.7312,Erode
Erode Turmeric Market,11.3418,77.7282,Erode
Erode Handloom Market,11.3425,77.7275,Erode
Bhavani Pavadai Market,11.4418,77.6782,Erode
Erode Central Market,11.3422,77.728,Erode
Saravana Bhavan Erode,11.342,77.7285,Erode
Hotel Aryaas Erode,11.3428,77.7292,Erode
Ponram Restaurant,11.3415,77.7278,Erode
A2B Adyar Ananda Bhavan Erode,11.3425,77.7288,Erode
Sri Krishna Sweets Erode,11.3418,77.7282,Erode
Sangeetha Restaurant Erode,11.3422,77.7285,Erode
Anjappar Chettinad Restaurant,11.3432,77.7295,Erode
Kodiveri Coracle Boat Ride,11.5128,77.1852,Erode
Sidheshwara Hills Trekking,11.5515,77.3845,Erode
Bhavani-Cauvery Sangamam,11.4425,77.6788,Erode
Cauvery River View Point,11.3412,77.7265,Erode
Chennimalai Handloom Weaving Center,11.1672,77.6038,Erode
Erode Town Hall,11.3425,77.7285,Erode
Sathyamangalam Forest Reserve,11.5052,77.2552,Erode
Bhavani River Bathing Ghat,11.4428,77.6792,Erode
Ooty Lake,11.4082,76.6898,Nilgiris
Pykara Lake,11.5012,76.5521,Nilgiris
Emerald Lake,11.5321,76.5842,Nilgiris
Avalanche Lake,11.2512,76.5145,Nilgiris
Upper Bhavani Lake,11.4842,76.4521,Nilgiris
Government Botanical Garden Ooty,11.4125,76.6985,Nilgiris
Rose Garden Ooty,11.4142,76.6998,Nilgiris
Sims Park Coonoor,11.3542,76.7965,Nilgiris
Thread Garden Ooty,11.4108,76.6925,Nilgiris
Doddabetta Peak,11.4024,76.7367,Nilgiris
Dolphin's Nose Coonoor,11.3685,76.8212,Nilgiris
Lamb's Rock Coonoor,11.3721,76.8245,Nilgiris
Kodanad Viewpoint Kotagiri,11.4285,76.8745,Nilgiris
Rangaswamy Peak Kotagiri,11.3821,76.8512,Nilgiris
Tiger Hill Ooty,11.3912,76.6821,Nilgiris
Catherine Falls,11.3421,76.7412,Nilgiris
Pykara Waterfalls,11.5021,76.5532,Nilgiris
Kalhatti Falls,11.4512,76.7121,Nilgiris
Elk Falls Kotagiri,11.4342,76.8812,Nilgiris
Law's Falls Coonoor,11.3512,76.7845,Nilgiris
Mudumalai Tiger Reserve,11.6,76.5,Nilgiris
Mukurthi National Park,11.3842,76.5112,Nilgiris
Longwood Shola Reserve,11.3685,76.7545,Nilgiris
Kotagiri Tea Estates,11.4212,76.8665,Nilgiris
Coonoor Tea Gardens,11.3548,76.7955,Nilgiris
Glenmorgan Tea Estate,11.3621,76.7812,Nilgiris
Stone House Ooty,11.4145,76.6945,Nilgiris
Droog Fort Coonoor,11.3621,76.7912,Nilgiris
St. Stephen's Church Ooty,11.4118,76.6938,Nilgiris
Tribal Research Center,11.4095,76.6912,Nilgiris
Wax World Museum,11.4112,76.6932,Nilgiris
Tea Museum Coonoor,11.3552,76.7962,Nilgiris
Nilgiri Mountain Railway,11.4098,76.6928,Nilgiris
Avalanche Trekking Trail,11.2508,76.5142,Nilgiris
Ooty Lake Boating,11.4085,76.6902,Nilgiris
Pine Forest Ooty,11.4285,76.6712,Nilgiris
Ooty Main Bazaar,11.4128,76.6955,Nilgiris
Coonoor Market,11.3545,76.7958,Nilgiris
Tibetan Market Ooty,11.4135,76.6965,Nilgiris
Earl's Secret Ooty,11.4115,76.6942,Nilgiris
Nahar's Sidewalk Cafe,11.4122,76.6948,Nilgiris
Hyderabad Biryani House,11.4132,76.6958,Nilgiris
Willy's Coffee Pub,11.4108,76.6935,Nilgiris
Place To Bee Cafe,11.4118,76.6945,Nilgiris
Hotel Pankaj Bhojanalaya,11.4125,76.6952,Nilgiris
Ketti Valley View,11.3812,76.7112,Nilgiris
6th Mile Coonoor,11.3612,76.7885,Nilgiris
Wenlock Downs,11.4512,76.6542,Nilgiris
Deer Park Ooty,11.4152,76.6978,Nilgiris
All Saints Church Coonoor,11.3548,76.7958,Nilgiris
Hogenakkal Falls,12.1182,77.7739,Dharmapuri
Hogenakkal Coracle Boat Ride,12.1185,77.7742,Dharmapuri
Hogenakkal Viewpoint,12.1195,77.7752,Dharmapuri
Kaveri River Bathing Area,12.1178,77.7735,Dharmapuri
Theerthamalai Temple,12.1017,78.5903,Dharmapuri
Chenraya Perumal Temple,12.1265,78.1585,Dharmapuri
Kottai Kovil Temple,12.0745,78.1215,Dharmapuri
Kalabairavar Temple,12.0742,78.1208,Dharmapuri
Hanumanthathirtham Temple,12.1025,78.5915,Dharmapuri
Morappur Mariamman Temple,12.0312,78.3521,Dharmapuri
Sri Raghavendra Swamy Mutt,12.1275,78.1582,Dharmapuri
Veera Anjaneyar Temple,12.1272,78.1578,Dharmapuri
Sacred Heart Cathedral,12.1268,78.1575,Dharmapuri
Mount Carmel Church,12.1285,78.1595,Dharmapuri
CSI Zion Church,12.1278,78.1588,Dharmapuri
Adhiyamankottai Fort,12.0744,78.1211,Dharmapuri
Subramanya Siva Memorial,12.1282,78.1592,Dharmapuri
Dharmapuri Government Museum,12.1275,78.1585,Dharmapuri
Krishnagiri Dam Park,12.5142,78.2245,Dharmapuri
Mettur Dam,11.7892,77.7985,Dharmapuri
Thoppaiyar Dam,12.2512,78.4421,Dharmapuri
Pambar Dam,11.6842,77.6521,Dharmapuri
Melagiri Hills,12.3521,78.4812,Dharmapuri
Karimangalam Hills,12.1812,77.9521,Dharmapuri
Pennagaram Forest Area,12.1421,77.8812,Dharmapuri
Sitteri Forest Reserve,12.2142,78.3512,Dharmapuri
Dharmapuri Town Park,12.128,78.159,Dharmapuri
Children's Park Dharmapuri,12.1285,78.1595,Dharmapuri
Harur Lake Park,12.0525,78.4828,Dharmapuri
Karimangalam Lake,12.1815,77.9525,Dharmapuri
Harur Lake,12.0522,78.4826,Dharmapuri
Pennagaram Lake,12.1345,77.8955,Dharmapuri
Dharmapuri Main Market,12.1275,78.158,Dharmapuri
Hogenakkal Fish Market,12.1188,77.7745,Dharmapuri
Harur Market,12.052,78.4824,Dharmapuri
Hogenakkal Fish Fry Stalls,12.1192,77.7748,Dharmapuri
Saravana Bhavan Dharmapuri,12.1278,78.1585,Dharmapuri
Hotel Aryaas Dharmapuri,12.1282,78.1588,Dharmapuri
Sri Krishna Sweets,12.1275,78.1582,Dharmapuri
A2B Adyar Ananda Bhavan,12.1285,78.1592,Dharmapuri
Sangeetha Restaurant,12.1272,78.1578,Dharmapuri
Hogenakkal Medicinal Bath,12.118,77.7738,Dharmapuri
Melagiri Hills Trekking,12.3518,78.4808,Dharmapuri
Kaveri River Rafting,12.1175,77.7732,Dharmapuri
Kaveri River Viewpoint,12.1198,77.7755,Dharmapuri
Theerthamalai Viewpoint,12.1022,78.5908,Dharmapuri
Dharmapuri Silk Weaving Center,12.1268,78.1575,Dharmapuri
Pennagaram Eco Park,12.1348,77.8958,Dharmapuri
Dharmapuri Rose Garden,12.1288,78.1598,Dharmapuri
Morappur Lake,12.0315,78.3525,Dharmapuri
Yercaud Lake (Emerald Lake),11.7785,78.2042,Salem
Yercaud Botanical Garden,11.7795,78.2038,Salem
Yercaud Rose Garden,11.7788,78.2045,Salem
Shevaroy Temple,11.8142,78.2245,Salem
Lady's Seat Yercaud,11.7821,78.2112,Salem
Peeku Park Yercaud,11.7792,78.2048,Salem
Pagoda Point,11.7645,78.1912,Salem
Anna Park Yercaud,11.7798,78.2052,Salem
Bears Cave,11.7512,78.1842,Salem
32 km Loop Road Yercaud,11.775,78.2,Salem
Kiliyur Falls,11.7421,78.2312,Salem
Kolli Hills Agaya Gangai Falls,11.3712,78.3542,Salem
Pachaimalai Falls,11.4821,78.4512,Salem
1008 Shiva Temple,11.3742,78.3512,Salem
Siddhar Temple Kanjamalai,11.5812,78.1142,Salem
Kottai Mariamman Temple,11.6638,78.1465,Salem
Sugavaneshwarar Temple,11.6652,78.1478,Salem
Sri Raja Rajeswari Temple,11.6645,78.1472,Salem
ISKCON Temple Salem,11.6621,78.1442,Salem
Arulmigu Arupathi Thiruvasagam Temple,11.6658,78.1485,Salem
Mettur Dam,11.8,77.8,Salem
Mettur Dam Park,11.8005,77.8012,Salem
Thirumanimutharu River Dam,11.5421,78.2142,Salem
Sankagiri Fort,11.5142,77.8785,Salem
Salem Government Museum,11.6642,78.1468,Salem
Kurumbapatti Zoological Park,11.8512,78.0842,Salem
Anna Park Salem,11.6655,78.1475,Salem
Deer Park Salem,11.6648,78.147,Salem
Children's Park Salem,11.6652,78.1478,Salem
Mookaneri Lake,11.5812,78.0912,Salem
Saradhambal Lake,11.6512,78.1312,Salem
Salem Main Bazaar,11.664,78.1465,Salem
Yercaud Market,11.7792,78.2045,Salem
Salem Textiles Hub,11.6638,78.1462,Salem
Great Trails Yercaud,11.7802,78.2058,Salem
Saravana Bhavan Salem,11.6645,78.147,Salem
Hotel Aryaas Salem,11.6648,78.1472,Salem
A2B Adyar Ananda Bhavan,11.6652,78.1478,Salem
Sri Krishna Sweets Salem,11.6642,78.1468,Salem
Sangeetha Restaurant Salem,11.6638,78.1465,Salem
Yercaud Lake Boating,11.7788,78.2042,Salem
Yercaud Trekking Trails,11.775,78.21,Salem
Kolli Hills Adventure Trek,11.375,78.35,Salem
Yercaud Coffee Plantations,11.7812,78.2112,Salem
Yercaud Orange Groves,11.7821,78.2125,Salem
Gents Seat Yercaud,11.7842,78.2152,Salem
Norton's Bungalow Viewpoint,11.7865,78.2178,Salem
Silk Farm Yercaud,11.7805,78.2065,Salem
Jamia Masjid Salem,11.6635,78.1458,Salem
Sri Chakra Mahameru Temple,11.6665,78.1492,Salem
Vivekananda Rock Memorial,8.0781,77.5555,Kanyakumari
Thiruvalluvar Statue,8.0785,77.5565,Kanyakumari
Gandhi Memorial Mandapam,8.0785,77.542,Kanyakumari
Tsunami Memorial,8.0812,77.5452,Kanyakumari
Kanyakumari Beach (Triveni Sangam),8.0798,77.5442,Kanyakumari
Sanguthurai Beach,8.1012,77.5612,Kanyakumari
Sothavilai Beach,8.0952,77.5542,Kanyakumari
Muttom Beach,8.1245,77.3312,Kanyakumari
Chothavilai Beach,8.1152,77.4512,Kanyakumari
Sunset Point,8.0788,77.5415,Kanyakumari
Sunrise Point,8.0792,77.545,Kanyakumari
View Tower Kanyakumari,8.0795,77.5425,Kanyakumari
Kanyakumari Lighthouse,8.0805,77.5438,Kanyakumari
Kumari Amman Temple (Bhagavathy Amman),8.0798,77.5398,Kanyakumari
Suchindram Thanumalayan Temple,8.1512,77.4612,Kanyakumari
Sthanumalayan Temple,8.1515,77.4615,Kanyakumari
Nagaraja Temple,8.1502,77.4605,Kanyakumari
Guganathaswamy Temple,8.2145,77.3812,Kanyakumari
Thirparappu Shiva Temple,8.2542,77.3421,Kanyakumari
Our Lady of Ransom Church,8.0812,77.5385,Kanyakumari
St. Xavier's Church,8.0805,77.5378,Kanyakumari
Holy Cross Church Kottar,8.1842,77.4412,Kanyakumari
Thirparappu Falls (Thirparappu Aruvi),8.2545,77.3425,Kanyakumari
Olakaruvi Falls,8.3512,77.2812,Kanyakumari
Courtallam Falls (Near Kanyakumari),8.9121,77.2842,Kanyakumari
Padmanabhapuram Palace,8.23,77.33,Kanyakumari
Vattakottai Fort,8.0421,77.4512,Kanyakumari
Udayagiri Fort,8.1512,77.3842,Kanyakumari
Mathur Hanging Bridge (Aqueduct),8.3812,77.3142,Kanyakumari
Chitharal Jain Temples (Rock-Cut),8.2812,77.1842,Kanyakumari
Kanyakumari Wax Museum,8.0808,77.543,Kanyakumari
Kamarajar Mani Mandapam,8.0802,77.5422,Kanyakumari
Kanyakumari Main Bazaar,8.0815,77.5395,Kanyakumari
Seashell Market,8.0812,77.539,Kanyakumari
Handloom Shopping Center,8.0818,77.5402,Kanyakumari
Sea View Restaurant,8.0795,77.5405,Kanyakumari
Saravana Bhavan Kanyakumari,8.081,77.5392,Kanyakumari
Hotel Aryaas Kanyakumari,8.0812,77.5395,Kanyakumari
A2B Adyar Ananda Bhavan,8.0815,77.5398,Kanyakumari
Sangam Restaurant,8.0808,77.5388,Kanyakumari
Fresh Fish Market Restaurants,8.0822,77.541,Kanyakumari
Vivekananda Rock Ferry Ride,8.0788,77.544,Kanyakumari
Swimming at Muttom Beach,8.1248,77.3315,Kanyakumari
Vivekananda Kendra,8.0792,77.5428,Kanyakumari
Children's Park Kanyakumari,8.0825,77.5415,Kanyakumari
Thirparappu Dam Park,8.2548,77.3428,Kanyakumari
Vivekananda Mandapam,8.0782,77.5552,Kanyakumari
Nagercoil Clock Tower,8.1774,77.434,Kanyakumari
Baywatch Amusement Park,8.0835,77.5445,Kanyakumari
Pechiparai Dam,8.3542,77.2512,Kanyakumari
Suruli Falls,9.6587,77.302,Theni
Chinna Suruli Falls,9.6521,77.2912,Theni
Kumbakkarai Falls,9.6812,77.3245,Theni
Kumbakarai Main Falls,9.6821,77.3252,Theni
Meghamalai (High Wavy Mountains),9.7,77.4,Theni
Meghamalai Viewpoint,9.7012,77.4015,Theni
Kurangani Hills,10.0512,77.3421,Theni
Maharaja Mettu,9.7142,77.4112,Theni
Vaigai Dam,10.1142,77.5812,Theni
Vaigai Dam Park,10.1148,77.5818,Theni
Shanmuganathi Dam,10.0821,77.4512,Theni
Sothuparai Dam,9.7521,77.3842,Theni
Manalar Dam,9.7312,77.4212,Theni
Meghamalai Wildlife Sanctuary,9.6921,77.3912,Theni
Meghamalai Tiger Reserve,9.6945,77.3942,Theni
Meghamalai Tea Estates,9.7021,77.4025,Theni
High Wavy Tea Estate Tour,9.7035,77.4045,Theni
Kolukkumalai Tea Estate (Border),9.7512,77.4512,Theni
Kuchanur Sri Saneeswara Temple,10.0245,77.5121,Theni
Devadanapatti Kamakshi Amman Temple,10.0012,77.4512,Theni
Kailasanathar Temple Cave,9.6542,77.2985,Theni
Veerapandi Gowmariamman Temple,9.9712,77.4742,Theni
Mangaladevi Temple Thekkady Border,9.6312,77.3312,Theni
Vellappar Temple Mavuthu,9.6512,77.3142,Theni
Murugan Temple Meghamalai,9.7045,77.4055,Theni
Colonel Pennycuick Memorial,10.1152,77.5822,Theni
Bodi Hills,10.0121,77.3812,Theni
Theertha Thotti Sacred Pool,9.6582,77.3015,Theni
Mavuthu Natural Springs,9.6521,77.3125,Theni
Theni Main Market,10.0108,77.4772,Theni
Cumbum Grape Market,9.7365,77.2865,Theni
Theni Textile Market,10.0112,77.4778,Theni
Saravana Bhavan Theni,10.0102,77.4765,Theni
Hotel Aryaas Theni,10.0105,77.4768,Theni
Thooppukadai Mess,10.0098,77.4762,Theni
A2B Adyar Ananda Bhavan,10.011,77.4775,Theni
Sri Krishna Sweets,10.0106,77.477,Theni
Meghamalai Trekking,9.7005,77.4005,Theni
Kurangani Hills Trek,10.0515,77.3425,Theni
Meghamalai Jeep Safari,9.7015,77.402,Theni
Theni Children's Park,10.0115,77.478,Theni
Periyakulam Town Park,10.1282,77.542,Theni
Vellimalai Viewpoint,9.9812,77.4212,Theni
Kambam Valley View,9.7412,77.2912,Theni
Meghamalai Sunset Point,9.7025,77.4035,Theni
Cumbum Valley Vineyards,9.7368,77.2868,Theni
Theni Organic Farms Tour,10.0121,77.4785,Theni
Kodi Lingam Sacred Site,9.6621,77.3121,Theni
Ellapatti River,9.8512,77.3812,Theni
Periyakulam Lake,10.1285,77.5425,Theni
Adiyogi Shiva Statue & Isha Yoga Centre,10.9724,76.7406,Coimbatore
Dhyanalinga Temple,10.9721,76.7402,Coimbatore
Marudhamalai Murugan Temple,11.0442,76.8442,Coimbatore
Perur Pateeswarar Temple,10.9742,76.9012,Coimbatore
Eachanari Vinayagar Temple,10.9521,76.9685,Coimbatore
Koniamman Temple,11.0165,76.9555,Coimbatore
Vellingiri Hill Temple,10.9142,76.7212,Coimbatore
Masaniamman Temple Anaimalai,10.9812,76.8512,Coimbatore
Siruvani Waterfalls (Kovai Kutralam),10.9245,76.6912,Coimbatore
Vaidehi Falls (Monkey Falls),10.3512,76.8142,Coimbatore
Monkey Falls,10.3515,76.8145,Coimbatore
Kodiveri Falls,11.5125,77.1848,Coimbatore
Valparai Hill Station,10.3269,76.9512,Coimbatore
Valparai Tea Estates,10.3285,76.9525,Coimbatore
Anaikatti Hills,10.9821,76.7842,Coimbatore
Aliyar Dam,10.4812,76.9742,Coimbatore
Aliyar Dam Park,10.4818,76.9748,Coimbatore
Siruvani Dam,10.9252,76.6918,Coimbatore
Parambikulam Dam,10.3712,76.7312,Coimbatore
Indira Gandhi Wildlife Sanctuary,10.3845,76.9212,Coimbatore
Salim Ali Centre for Ornithology,11.0142,76.9445,Coimbatore
Black Thunder Water Theme Park,10.4521,76.9512,Coimbatore
Kovai Kondattam Amusement Park,11.0512,77.0212,Coimbatore
Maharaja Theme Park,11.0485,77.0185,Coimbatore
VOC Park and Zoo,11.0121,76.9712,Coimbatore
Gandhi Park (Singanallur),10.9821,77.0312,Coimbatore
Bharathi Park,11.0125,76.9585,Coimbatore
Botanical Garden TNAU,11.0185,76.9365,Coimbatore
GEDEE Car Museum,11.0312,76.9812,Coimbatore
Gass Forest Museum,11.0142,76.9512,Coimbatore
Tamil Nadu Police Museum,11.0178,76.9542,Coimbatore
Regional Science Centre & Planetarium,11.0212,76.9685,Coimbatore
Brookefields Mall,11.0245,76.9742,Coimbatore
Prozone Mall,11.0412,76.9885,Coimbatore
RS Puram Shopping Area,11.0142,76.9485,Coimbatore
Town Hall Market,11.0085,76.9612,Coimbatore
Hari Bhavanam,11.0152,76.9565,Coimbatore
Annapoorna Restaurant,11.0165,76.9572,Coimbatore
That's Y Food,11.0198,76.9615,Coimbatore
Shree Anandhaas,11.0175,76.9585,Coimbatore
Sree Annapoorna Sree Gowrishankar,11.0162,76.9568,Coimbatore
Junior Kuppanna,11.0212,76.9642,Coimbatore
Vellingiri Hills Trekking,10.9145,76.7215,Coimbatore
Rock Climbing at Marudhamalai,11.0445,76.8445,Coimbatore
Kovai Courtallam River,10.9248,76.6915,Coimbatore
Mahatma Gandhi Memorial,11.0155,76.9558,Coimbatore
Singanallur Lake,10.9825,77.0315,Coimbatore
Race Course,11.0095,76.9545,Coimbatore
Codissia Trade Fair Complex,11.0385,76.9912,Coimbatore
Black Thunder Mountain,10.4525,76.9515,Coimbatore
Sri Ranganathaswamy Temple Srirangam,10.8566,78.6972,Tiruchirappalli
Rock Fort Temple (Ucchi Pillayar),10.8361,78.6889,Tiruchirappalli
Thayumanaswamy Temple,10.8358,78.6892,Tiruchirappalli
Jambukeswarar Temple (Thiruvanaikaval),10.8652,78.7012,Tiruchirappalli
Samayapuram Mariamman Temple,10.8912,78.5512,Tiruchirappalli
Erumbeeswarar Temple,10.7842,78.6945,Tiruchirappalli
Brahmapureeswarar Temple,10.8145,78.7012,Tiruchirappalli
Vekkali Amman Temple,10.7912,78.7082,Tiruchirappalli
Sri Subramanya Swamy Temple Vayalur,10.6812,78.5421,Tiruchirappalli
Thirunedungulam Nathar Temple,10.9312,78.7512,Tiruchirappalli
St. Lourdes Church,10.7898,78.7052,Tiruchirappalli
St. Joseph's Church,10.8125,78.6912,Tiruchirappalli
Natharsha Dargah,10.8085,78.7015,Tiruchirappalli
Kallanai Dam (Grand Anicut),10.83,78.81,Tiruchirappalli
Upper Anaicut (Mukkombu),10.8421,78.7612,Tiruchirappalli
Puliyancholai Falls,10.6512,78.3842,Tiruchirappalli
Agaya Gangai Waterfalls,11.3712,78.3542,Tiruchirappalli
Pachamalai Hills,11.4821,78.4512,Tiruchirappalli
Kolli Hills,11.3833,78.3333,Tiruchirappalli
Government Museum Trichy,10.8042,78.6985,Tiruchirappalli
Railway Museum Trichy,10.7845,78.6942,Tiruchirappalli
Anna Science Centre & Planetarium,10.8115,78.7025,Tiruchirappalli
Butterfly Park Srirangam,10.8585,78.6995,Tiruchirappalli
Trichy Birds Park,10.8012,78.7042,Tiruchirappalli
Anna Memorial Park,10.7925,78.7035,Tiruchirappalli
Children's Park Trichy,10.8085,78.7055,Tiruchirappalli
Chokkanatha Nayak Palace,10.8245,78.6952,Tiruchirappalli
Chinna Kadai Street,10.8125,78.6945,Tiruchirappalli
Big Bazaar Street,10.8142,78.6958,Tiruchirappalli
Trichy Main Guard Gate Market,10.8098,78.7012,Tiruchirappalli
Puthur Market,10.7685,78.7142,Tiruchirappalli
Femina Shopping Mall,10.8185,78.7085,Tiruchirappalli
Vasantha Bhavan,10.8152,78.6985,Tiruchirappalli
Sangeetha Restaurant Trichy,10.8165,78.6992,Tiruchirappalli
Hotel Kannappa,10.8178,78.7005,Tiruchirappalli
Saravana Bhavan Trichy,10.8145,78.6978,Tiruchirappalli
Diana Restaurant,10.8195,78.7025,Tiruchirappalli
A2B Adyar Ananda Bhavan,10.8172,78.7012,Tiruchirappalli
Rock Fort Climb (437 Steps),10.8362,78.689,Tiruchirappalli
Kaveri River Boating,10.8542,78.7085,Tiruchirappalli
Teppakulam Temple Tank,10.8585,78.6978,Tiruchirappalli
Kaveri River Viewpoint,10.8512,78.7112,Tiruchirappalli
Gandhi Market Complex,10.8125,78.6965,Tiruchirappalli
Trichy Airport Viewing Area,10.7654,78.7094,Tiruchirappalli
Ucchi Pillayar Rockfort Viewpoint,10.8365,78.6892,Tiruchirappalli
Cauvery Delta Region Tour,10.82,78.75,Tiruchirappalli
Woraiyur Ancient Chola Capital,10.8305,78.6824,Tiruchirappalli
Trichy Heritage Walk,10.8185,78.6925,Tiruchirappalli
Srirangam Island,10.86,78.695,Tiruchirappalli
Trichy Trade Centre,10.8212,78.7095,Tiruchirappalli
Pasupatheswarar Temple,10.9606,78.0785,Karur
Kalyana Venkataramana Swamy Temple,10.9612,78.0792,Karur
Arulmigu Kalyana Pasupatheswarar Temple,10.9608,78.0788,Karur
Sadasiva Brahmendra Samadhi Nerur,10.5833,78.05,Karur
Kashi Vishwanatha Temple Nerur,10.5835,78.0505,Karur
Mariamman Temple Karur,10.9585,78.0795,Karur
Vennamalai Murugan Temple,10.8512,78.1242,Karur
Thirumukkoodalur Temple,10.9312,78.1512,Karur
Pugazhimalai Murugan Temple,10.9142,78.0512,Karur
Amrithagateswarar Temple,10.9521,78.0842,Karur
Mayanur Dam & Barrage,10.9056,78.1664,Karur
Ponnaniyaru Dam,10.8812,78.0312,Karur
Aathupalayam Dam,10.9212,78.1142,Karur
Kovilur Dam,10.9421,78.1421,Karur
Amaravathi River Check Dam,10.9612,78.0912,Karur
Pugalur Dam,10.9785,78.1812,Karur
Amaravathi Children's Park,10.9582,78.0815,Karur
Rajaji Park Karur,10.9588,78.0822,Karur
Mayanur Check Dam Park,10.9058,78.1668,Karur
Children's Park Karur,10.9592,78.0828,Karur
Karur Government Museum,10.9575,78.0808,Karur
Karur Fort Ruins,10.9598,78.0795,Karur
Amaravathi River Bank,10.9565,78.0785,Karur
Kaveri River View Point,10.9085,78.1685,Karur
Nerur River Bank,10.5842,78.0512,Karur
Amaravathi River Bed Archaeological Site,10.9512,78.0742,Karur
Karur Home Textile Market,10.958,78.0812,Karur
Karur Main Bazaar,10.9578,78.081,Karur
Textile Showrooms Karur,10.9585,78.0818,Karur
Handloom Weaving Centers,10.9572,78.0805,Karur
Vasantha Bhavan Karur,10.9582,78.0815,Karur
Hotel Radhika,10.9585,78.082,Karur
Saravana Bhavan Karur,10.9578,78.0812,Karur
A2B Adyar Ananda Bhavan,10.9588,78.0825,Karur
Ponnusamy Restaurant,10.9592,78.0828,Karur
Sri Krishna Sweets,10.9575,78.0808,Karur
Karur Agricultural Farm Tour,10.9212,78.0512,Karur
Coconut Grove Visit,10.9312,78.0612,Karur
Karur-Trichy Railway Bridge View,10.9125,78.1512,Karur
Amaravathi Bridge,10.9558,78.0775,Karur
Kaveri Bridge Karur,10.9095,78.1695,Karur
Karur Agraharam Heritage Walk,10.9595,78.0798,Karur
Ancient Sangam Era Sites,10.9542,78.0752,Karur
Kodumudi Temples,11.0785,77.8845,Karur
Velayuthampalayam Village Tour,10.9812,78.1212,Karur
Evening Walk at Amaravathi Banks,10.9562,78.0782,Karur
Bird Watching at Mayanur,10.9062,78.1672,Karur
Textile Factory Tour,10.9568,78.0802,Karur
Karur Bus Stand Market,10.9575,78.0815,Karur
Rural Crafts Center Karur,10.9578,78.0818,Karur
Promenade Beach (Rock Beach),11.9325,79.8358,Pondicherry
Paradise Beach (Plage Paradiso),12.0121,79.8542,Pondicherry
Auroville Beach,12.0042,79.8188,Pondicherry
Serenity Beach,12.0038,79.8192,Pondicherry
Quiet Beach (Repos Beach),11.9512,79.8412,Pondicherry
Sri Aurobindo Ashram,11.9282,79.8318,Pondicherry
Auroville & Matrimandir,12.0072,79.8107,Pondicherry
Manakula Vinayagar Temple,11.9298,79.8325,Pondicherry
Sri Varadaraja Perumal Temple,11.9312,79.8342,Pondicherry
Vedapureeswarar Temple,11.9285,79.8312,Pondicherry
Basilica of the Sacred Heart of Jesus,11.9342,79.8285,Pondicherry
Immaculate Conception Cathedral,11.9305,79.8305,Pondicherry
Notre Dame des Anges Church,11.9295,79.8298,Pondicherry
Church of Our Lady of Angels,11.9288,79.8292,Pondicherry
French Quarter (White Town),11.9315,79.8325,Pondicherry
French War Memorial,11.9338,79.8352,Pondicherry
Aayi Mandapam,11.9328,79.8348,Pondicherry
Old Lighthouse,11.9245,79.8385,Pondicherry
Pondicherry Museum,11.9308,79.8312,Pondicherry
Jawahar Toy Museum,11.9318,79.8318,Pondicherry
Cluny Embroidery Centre,11.9265,79.8295,Pondicherry
Botanical Garden,11.9485,79.8112,Pondicherry
Bharathi Park (Government Park),11.9322,79.8335,Pondicherry
Ousteri Lake & National Park,11.9745,79.7542,Pondicherry
Chunnambar Backwater,11.9912,79.8542,Pondicherry
Arikamedu Archaeological Site,11.9142,79.8512,Pondicherry
Dupleix Park,11.9242,79.8372,Pondicherry
Café des Arts,11.9312,79.8328,Pondicherry
Baker Street,11.9318,79.8332,Pondicherry
Le Café,11.9325,79.8338,Pondicherry
Villa Shanti,11.9315,79.8325,Pondicherry
Surguru Restaurant,11.9302,79.8315,Pondicherry
Bread & Baguette,11.9308,79.8322,Pondicherry
Kasha Ki Aasha,11.932,79.8335,Pondicherry
Goubert Market (Grand Bazaar),11.9292,79.8342,Pondicherry
Mission Street Shopping,11.9298,79.8312,Pondicherry
Nehru Street Market,11.9285,79.8305,Pondicherry
Scuba Diving at Temple Reef,11.9812,79.8612,Pondicherry
Surfing at Serenity Beach,12.004,79.8195,Pondicherry
Kayaking at Chunnambar,11.9915,79.8545,Pondicherry
Cycling Tour of French Quarter,11.9318,79.8328,Pondicherry
Auroville Bakery & Cafeteria,12.0075,79.811,Pondicherry
French Institute (Alliance Française),11.9332,79.8318,Pondicherry
Bharati Museum & Gallery,11.9325,79.8332,Pondicherry
Gandhi Statue & Memorial,11.9335,79.8355,Pondicherry
Paradise Island (Chunnambar),11.9918,79.8548,Pondicherry
House of Hidesign,11.9305,79.8318,Pondicherry
Seagulls Restaurant & Bar,11.9328,79.8345,Pondicherry
Pondy Marina,11.9258,79.8378,Pondicherry
Pondicherry Heritage Walk,11.9315,79.8325,Pondicherry
Meenakshi Amman Temple,9.9195,78.1193,Madurai
Thiruparankundram Murugan Temple,9.8712,78.0742,Madurai
Alagar Kovil (Kallazhagar Temple),10.0312,78.2542,Madurai
Koodal Azhagar Temple,9.9212,78.1185,Madurai
Pazhamudhir Solai (Murugan Temple),9.9821,78.2812,Madurai
Thirumohor Kalamega Perumal Temple,9.9142,78.1142,Madurai
Sri Soundararajaperumal Temple,9.9185,78.1205,Madurai
Vandiyur Mariamman Temple,9.9085,78.1512,Madurai
Thirumalai Nayakkar Mahal (Palace),9.9178,78.1208,Madurai
Thousand Pillar Hall (Aayiram Kaal Mandapam),9.9198,78.1195,Madurai
Pudhu Mandapam (Shopping Hall),9.9192,78.1188,Madurai
St. Mary's Cathedral Church,9.9285,78.1242,Madurai
Kazimar Big Mosque,9.9252,78.1185,Madurai
Maqbara Mosque,9.9245,78.1178,Madurai
Gandhi Memorial Museum,9.9385,78.1142,Madurai
Government Museum Madurai,9.9342,78.1168,Madurai
Vaigai Dam,10.0533,77.5897,Madurai
Samanar Hills,9.8912,78.0512,Madurai
Kutladampatti Falls,9.7512,77.9842,Madurai
Meghamalai Wildlife Sanctuary,9.6921,77.3912,Madurai
Vandiyur Mariamman Teppakulam,9.9082,78.1515,Madurai
Vaigai River View,9.9312,78.1225,Madurai
Athisayam Amusement Park,9.9612,78.1842,Madurai
Eco Park Madurai,9.9485,78.1385,Madurai
Meenakshi Temple Market Area,9.9188,78.119,Madurai
Town Hall Market,9.9258,78.1198,Madurai
East Gate Street Shopping,9.9202,78.1198,Madurai
Vilakkuthoon Market,9.9165,78.1172,Madurai
Murugan Idli Shop,9.9212,78.1185,Madurai
Kumar Mess,9.9205,78.1195,Madurai
Sree Sabarees,9.9215,78.1192,Madurai
Amsavalli Bhavan,9.9208,78.1188,Madurai
Konar Kadai (Mutton Stall),9.9198,78.1182,Madurai
Heritage Madurai Restaurant,9.9222,78.1205,Madurai
Meenakshi Temple Evening Ceremony,9.9196,78.1194,Madurai
Thirumalai Nayak Palace Light & Sound Show,9.9179,78.1209,Madurai
Alagar Hills Trekking,10.0315,78.2545,Madurai
Keelakuyilkudi Jain Caves,9.8542,78.0312,Madurai
Ancient Inscriptions at Samanar Hills,9.8915,78.0515,Madurai
Rajaji Park,9.9352,78.1175,Madurai
Tamukkam Ground,9.9485,78.1285,Madurai
Gopuram View from Temple Terrace,9.9197,78.1194,Madurai
Vaigai Dam Sunset Point,10.0535,77.59,Madurai
Madurai Silk Saree Weaving Center,9.9178,78.1165,Madurai
Handloom Co-operative Society,9.9185,78.1175,Madurai
Madurai Flower Market,9.9185,78.1182,Madurai
Banana Market Madurai,9.9245,78.1205,Madurai
Madurai Heritage Walk,9.9202,78.1192,Madurai
Village Tourism near Madurai,9.8812,78.0812,Madurai
Main Falls (Peraruvi) Courtallam,8.9319,77.2692,Thenkasi
Five Falls (Aintharuvi) Courtallam,8.9285,77.2645,Thenkasi
Old Courtallam Falls,8.9212,77.2612,Thenkasi
Shenbagadevi Falls,8.9245,77.2658,Thenkasi
Small Falls (Chitraruvi),8.9322,77.2695,Thenkasi
Tiger Falls (Puliyaruvi),8.9185,77.2585,Thenkasi
Honey Falls (Thenaruvi),8.9165,77.2542,Thenkasi
Agasthiyar Falls,8.8912,77.2312,Thenkasi
Manimuthar Waterfalls,8.7842,77.3512,Thenkasi
Kasi Viswanathar Temple Tenkasi,8.9592,77.313,Thenkasi
Thirukutralanathar Temple Courtallam,8.9345,77.2782,Thenkasi
Thirumalai Kovil (Panpoli),8.9512,77.2912,Thenkasi
Sankaranarayana Swamy Temple,8.7512,77.3842,Thenkasi
Kulasekharanathar Temple,8.9585,77.3145,Thenkasi
Shenbagadevi Amman Temple,8.9248,77.2662,Thenkasi
Kannimaramman Temple,8.9612,77.3185,Thenkasi
Ayikudi Balasubramanya Temple,8.8342,77.4212,Thenkasi
Sivasailam Temple,8.9542,77.3112,Thenkasi
Chitra Sabai Temple,8.9352,77.2812,Thenkasi
Papanasam Dam,8.669,77.2872,Thenkasi
Manimuthar Dam,8.7845,77.3515,Thenkasi
Gundaru Dam,8.8212,77.3712,Thenkasi
Karuppanadhi Dam,8.9112,77.3212,Thenkasi
Thirumalapuram Rock-Cut Cave Temples,8.8512,77.3912,Thenkasi
Siva Gangai Waterfalls & Temple,8.9012,77.2512,Thenkasi
Western Ghats Viewpoint,8.9185,77.2512,Thenkasi
Thoranamali Hills Trekking,8.8842,77.2712,Thenkasi
Mekkarai Amusement Park,8.9542,77.2912,Thenkasi
Eco Park Courtallam,8.9312,77.2712,Thenkasi
Sundarapandiyapuram Agraharam,8.9685,77.3242,Thenkasi
Anniyan Para (Film Location),8.9112,77.2612,Thenkasi
Mekkarai Village Tour,8.9545,77.2915,Thenkasi
Sambavar Vadakarai (Sunflower Fields),8.9812,77.3412,Thenkasi
Tenkasi Main Market,8.9595,77.3135,Thenkasi
Courtallam Market Area,8.9348,77.2785,Thenkasi
Herbal Products Market,8.9342,77.2778,Thenkasi
Courtallam Local Food Stalls,8.9345,77.278,Thenkasi
Saravana Bhavan Tenkasi,8.959,77.313,Thenkasi
Hotel Aryaas Tenkasi,8.9595,77.3135,Thenkasi
Tenkasi Biryani Center,8.9588,77.3128,Thenkasi
Sri Krishna Sweets,8.9592,77.3132,Thenkasi
A2B Adyar Ananda Bhavan,8.9598,77.3138,Thenkasi
Agasthiyar Falls Trekking,8.8915,77.2315,Thenkasi
Forest Bathing at Courtallam,8.9285,77.2685,Thenkasi
Courtallam Valley View,8.9255,77.2655,Thenkasi
Papanasam Dam Sunset Point,8.6692,77.2875,Thenkasi
Chittar River Banks,8.9412,77.2912,Thenkasi
Tenkasi Heritage Walk,8.9592,77.313,Thenkasi
Medicinal Plants Garden,8.9325,77.2715,Thenkasi
Courtallam Temple Pond,8.9348,77.2785,Thenkasi
Brihadeeswarar Temple (Big Temple),10.7828,79.1318,Thanjavur
Gangaikonda Cholapuram Temple,11.2064,79.4483,Thanjavur
Airavatesvara Temple Darasuram,10.9819,79.3944,Thanjavur
Punnainallur Mariamman Temple,10.7512,79.1142,Thanjavur
Thanjai Mamani Koil,10.7885,79.1392,Thanjavur
Swamimalai Murugan Temple,10.9512,79.3512,Thanjavur
Thiruvaiyaru Panchanatheeswarar Temple,10.8812,79.1012,Thanjavur
Kumbakonam Temples Circuit,10.96,79.3845,Thanjavur
Thirubuvanam Kampaheswarar Temple,10.9145,79.3512,Thanjavur
Nageswaraswamy Temple Kumbakonam,10.9585,79.3832,Thanjavur
Thanjavur Maratha Palace,10.7858,79.1385,Thanjavur
Saraswathi Mahal Library,10.7862,79.1388,Thanjavur
Sangeetha Mahal,10.7865,79.139,Thanjavur
Durbar Hall (Palace Complex),10.786,79.1387,Thanjavur
Bell Tower (Palace),10.7868,79.1392,Thanjavur
Raja Rajan Chola Art Gallery,10.7855,79.1382,Thanjavur
Royal Palace Museum,10.7862,79.1386,Thanjavur
District Museum Thanjavur,10.7878,79.1398,Thanjavur
Tanjore Painting Art Gallery,10.7842,79.1375,Thanjavur
Schwartz Church,10.7915,79.1425,Thanjavur
St. Peter & Paul Church,10.7895,79.1415,Thanjavur
Sivaganga Park,10.7985,79.1485,Thanjavur
Manora Fort & Garden,10.2145,79.8512,Thanjavur
Raja Serfoji Memorial Hall Garden,10.7865,79.1388,Thanjavur
Vijayanagar Fort,10.7845,79.1365,Thanjavur
Danish Fort Tranquebar,11.0342,79.8512,Thanjavur
Zion Church Tranquebar,11.0345,79.8515,Thanjavur
Grand Anicut Canal Street Market,10.83,78.81,Thanjavur
Tanjore Painting Workshops,10.7852,79.1378,Thanjavur
Bronze Casting Centers Swamimalai,10.9515,79.3515,Thanjavur
Thanjavur Silk Saree Shops,10.7872,79.1395,Thanjavur
Sathars Restaurant,10.7885,79.1395,Thanjavur
Hotel Gnanam,10.7892,79.1402,Thanjavur
Saravana Bhavan Thanjavur,10.7875,79.1388,Thanjavur
A2B Adyar Ananda Bhavan,10.7898,79.1408,Thanjavur
Sri Krishna Sweets,10.7882,79.1392,Thanjavur
Vasantha Bhavan Thanjavur,10.7878,79.139,Thanjavur
Thanjavur Classical Music Festival,10.787,79.1382,Thanjavur
Traditional Bharatanatyam Performance,10.7865,79.1385,Thanjavur
Tanjore Painting Workshop,10.7855,79.138,Thanjavur
Grand Anicut (Kallanai Dam),10.83,78.81,Thanjavur
Cauvery River Banks,10.8012,79.1512,Thanjavur
Pichavaram Mangrove Forest,11.4445,79.7812,Thanjavur
Point Calimere Wildlife Sanctuary,10.2842,79.8512,Thanjavur
Tranquebar Beach,11.0352,79.8518,Thanjavur
Rajali Birds Park,10.7912,79.1442,Thanjavur
Thanjavur Heritage Walk,10.7865,79.1385,Thanjavur
Rice Bowl of Tamil Nadu Tour,10.85,79.2,Thanjavur
Nandi Statue at Big Temple,10.783,79.132,Thanjavur
Temple Corridor Paintings,10.7829,79.1319,Thanjavur
Nellaiappar Temple,8.7284,77.6887,Tirunelveli
Krishnapuram Venkatachalapathy Temple,8.7512,77.7142,Tirunelveli
Sankaranarayana Temple Sankara Nagar,8.7385,77.6985,Tirunelveli
Arulmigu Krishnapuram Anchaneyar Temple,8.7515,77.7145,Tirunelveli
Papavinasam Temple,8.6545,77.3145,Tirunelveli
Athankarai Pallivasal,8.7312,77.6925,Tirunelveli
Suyambulingaswamy Temple Sivagiri,8.7142,77.7012,Tirunelveli
Nanguneri Sree Vaishnava Temple,8.4812,77.6512,Tirunelveli
Thirukkurungudi Nambi Temple,8.5121,77.6812,Tirunelveli
Sri Kumaraswamy Temple Kutralam,8.9345,77.2782,Tirunelveli
Agasthiyar Falls (Papanasam Falls),8.6542,77.3142,Tirunelveli
Manimuthar Waterfalls,8.7845,77.3515,Tirunelveli
Banatheertham Falls,8.6512,77.3112,Tirunelveli
Karaiyar Falls,8.6485,77.3092,Tirunelveli
Papanasam Dam (Karaiyar Dam),8.6507,77.3115,Tirunelveli
Manimuthar Dam,8.7848,77.3518,Tirunelveli
Mekkara Dam,8.7212,77.3412,Tirunelveli
Servalar Dam,8.6912,77.3242,Tirunelveli
Kalakkad Mundanthurai Tiger Reserve,8.5167,77.55,Tirunelveli
Kalakkad Wildlife Sanctuary,8.517,77.5505,Tirunelveli
Kattabomman Memorial Fort,8.5812,77.7912,Tirunelveli
Panchalankurichi Fort,8.5815,77.7915,Tirunelveli
Kazhugumalai Jain Temple & Rock-Cut Cave,9.1512,77.6912,Tirunelveli
Kappal Matha Church (Ship Church),8.4145,77.7512,Tirunelveli
St. Joseph's Church Palayamkottai,8.7242,77.7285,Tirunelveli
CSI Zion Church Palayamkottai,8.7245,77.7288,Tirunelveli
District Science Centre,8.7385,77.7012,Tirunelveli
Thamirabarani River Bank,8.7298,77.6912,Tirunelveli
Eco Park Tirunelveli,8.7485,77.7085,Tirunelveli
Tirunelveli Halwa Shopping,8.7285,77.6895,Tirunelveli
Tirunelveli Main Market,8.7292,77.6902,Tirunelveli
Palayamkottai Market,8.7238,77.7282,Tirunelveli
Iruttukadai Halwa Shop,8.7288,77.6898,Tirunelveli
Sri Murugan Mess,8.7295,77.6905,Tirunelveli
Saravana Bhavan Tirunelveli,8.729,77.69,Tirunelveli
Hotel Aryaas Tirunelveli,8.7298,77.6908,Tirunelveli
A2B Adyar Ananda Bhavan,8.7305,77.6915,Tirunelveli
Sri Krishna Sweets,8.7292,77.6902,Tirunelveli
Agasthiyar Hills Trekking,8.6525,77.3125,Tirunelveli
Western Ghats Bird Watching,8.5812,77.4512,Tirunelveli
Papanasam Viewpoint,8.6548,77.3148,Tirunelveli
Manimuthar Dam Sunset Point,8.785,77.352,Tirunelveli
Singampatti Zamin Palace,8.6142,77.6512,Tirunelveli
Tirunelveli Katcheri Building,8.7285,77.6888,Tirunelveli
Kothaiyar Sanatorium,8.5512,77.4812,Tirunelveli
Sorimuthu Ayyanar Temple,8.7812,77.4512,Tirunelveli
Tirunelveli Heritage Walk,8.7288,77.6895,Tirunelveli
Thamirabarani River Boat Ride,8.73,77.6915,Tirunelveli
Musical Pillars of Nellaiappar Temple,8.7285,77.6888,Tirunelveli
Tirunelveli Sangam Literature Sites,8.7285,77.689,Tirunelveli
Devanathaswamy Temple (Thiruvanthipuram),11.4012,79.6945,Cuddalore
Padaleeswarar Temple,11.3985,79.6928,Cuddalore
Nataraja Temple Chidambaram,11.3994,79.6933,Cuddalore
Bhuvaraha Swamy Temple,11.7512,79.7712,Cuddalore
Sri Singirikudi Narasimha Temple,11.8212,79.8312,Cuddalore
Veeratteswarar Temple,11.6812,79.7412,Cuddalore
Thirupathiripuliyur Perumal Temple,11.7485,79.7695,Cuddalore
Pinnai Vazhi Amman Temple Samiyarpettai,11.7612,79.8142,Cuddalore
Annamalai Temple (Tiruvannamalai nearby),12.23,79.07,Cuddalore
Vridhachalam Temple,11.5185,79.3212,Cuddalore
Silver Beach,11.7547,79.8168,Cuddalore
Samiyarpettai Beach,11.7612,79.8145,Cuddalore
Devanampattinam Beach,11.4512,79.8012,Cuddalore
Parangipettai Beach (Porto Novo),11.4845,79.7612,Cuddalore
Pichavaram Mangrove Forest,11.4319,79.781,Cuddalore
Pichavaram Boat Ride (Row Boat),11.4322,79.7812,Cuddalore
Pichavaram Kayaking,11.4325,79.7815,Cuddalore
MGR Thittu (Island near Pichavaram),11.4385,79.7842,Cuddalore
Fort St. David,11.7685,79.7812,Cuddalore
Bhuvanagiri Fort,11.4512,79.6812,Cuddalore
Danish Settlement Tranquebar,11.0342,79.8512,Cuddalore
Veeranam Lake,11.7512,79.5312,Cuddalore
Perumal Lake (Bird Watching),11.8012,79.7512,Cuddalore
Cuddalore Government Museum,11.7452,79.7685,Cuddalore
Annamalai University Herbarium,11.4012,79.6952,Cuddalore
CAS Marine Biology Aquarium,11.4842,79.7615,Cuddalore
Our Lady of Lourdes Church Cuddalore,11.7465,79.7692,Cuddalore
St. Joseph's Church Porto Novo,11.4848,79.7618,Cuddalore
Children's Park Cuddalore,11.7485,79.7712,Cuddalore
Eco Park Silver Beach,11.7552,79.8172,Cuddalore
Cuddalore Main Market,11.7448,79.7682,Cuddalore
Chidambaram Market,11.3998,79.6938,Cuddalore
Handicraft Shops Pichavaram,11.4325,79.7818,Cuddalore
Seafood Stalls Silver Beach,11.7545,79.8165,Cuddalore
Saravana Bhavan Cuddalore,11.7452,79.7685,Cuddalore
Hotel Aryaas Cuddalore,11.7458,79.7692,Cuddalore
A2B Adyar Ananda Bhavan,11.7465,79.7698,Cuddalore
Sri Krishna Sweets,11.7455,79.7688,Cuddalore
Local Fish Market Restaurants,11.7442,79.7675,Cuddalore
Water Sports at Silver Beach,11.7548,79.817,Cuddalore
Fishing Village Tour,11.7615,79.8148,Cuddalore
Silver Beach Lighthouse View,11.755,79.8172,Cuddalore
Gadilam River Viewpoint,11.7312,79.7542,Cuddalore
Chidambaram Dance Festival Venue,11.3996,79.6935,Cuddalore
Traditional Wood Carving Villages,11.4212,79.7112,Cuddalore
Neyveli Lignite Mines (Viewpoint),11.6142,79.4812,Cuddalore
Cuddalore Heritage Walk,11.745,79.7683,Cuddalore
Vellar Estuary Bird Watching,11.4512,79.7952,Cuddalore
Cuddalore Old Town Walking Tour,11.7445,79.768,Cuddalore
Sunset Point at Parangipettai,11.485,79.762,Cuddalore
Thyagaraja Temple Tiruvarur,10.7761,79.6335,Tiruvarur
Koothanur Maha Saraswathi Temple,10.7412,79.5812,Tiruvarur
Mannargudi Rajagopalaswamy Temple,10.4667,79.45,Tiruvarur
Srivanchiyam Vanchinathaswamy Temple,10.6512,79.4812,Tiruvarur
Thiruveezhimalai Temple,10.8312,79.6812,Tiruvarur
Thirupampuram Seshapureeswarar Temple,10.7212,79.5512,Tiruvarur
Thirukkannamangai Temple,10.5812,79.5212,Tiruvarur
Tillaivilagam Temple,10.7812,79.6512,Tiruvarur
Tirumeichur Udhara Kaliyeswarar Temple,10.7912,79.5912,Tiruvarur
Enkan Subramanyaswamy Temple,10.6812,79.5412,Tiruvarur
Muthupet Mangrove Forest,10.396,79.494,Tiruvarur
Muthupet Lagoon Boat Ride,10.3965,79.4945,Tiruvarur
Vaduvur Bird Sanctuary,10.5412,79.6212,Tiruvarur
Muthupet Estuary Bird Watching,10.3975,79.4955,Tiruvarur
Muthupet Beach,10.3842,79.5012,Tiruvarur
Thiruthuraipoondi Beach,10.4312,79.6312,Tiruvarur
Tyagaraja Temple Museum,10.7762,79.6336,Tiruvarur
Carnatic Music Trinity Memorial,10.7715,79.6372,Tiruvarur
Ancient Musical Instruments Gallery,10.7718,79.6375,Tiruvarur
Aazhi Ther (Temple Chariot) Viewing,10.776,79.6338,Tiruvarur
Thyagaraja Temple 1000 Pillar Hall,10.7762,79.6337,Tiruvarur
Mannargudi Temple Gopurams,10.4668,79.4502,Tiruvarur
Muthupet Fort Ruins,10.3912,79.4912,Tiruvarur
Ancient Chola Capital Sites,10.7712,79.6365,Tiruvarur
Muthupet Mosque (700 years old),10.3945,79.4935,Tiruvarur
St. Mary's Church Mannargudi,10.4672,79.4508,Tiruvarur
Rajaji Park Tiruvarur,10.7725,79.6382,Tiruvarur
Children's Park Mannargudi,10.4675,79.4512,Tiruvarur
Tiruvarur Main Market,10.7715,79.6372,Tiruvarur
Mannargudi Market,10.467,79.4505,Tiruvarur
Handicraft Shops near Temples,10.772,79.6378,Tiruvarur
Saravana Bhavan Tiruvarur,10.7718,79.6375,Tiruvarur
Hotel Aryaas Tiruvarur,10.7722,79.638,Tiruvarur
A2B Adyar Ananda Bhavan,10.7725,79.6385,Tiruvarur
Sri Krishna Sweets,10.772,79.6378,Tiruvarur
Local Mess (Traditional Food),10.7712,79.6368,Tiruvarur
Muthupet Seafood Stalls,10.3952,79.4942,Tiruvarur
Temple Chariot Festival (Seasonal),10.7761,79.6335,Tiruvarur
Carnatic Music Concert (Seasonal),10.7715,79.6372,Tiruvarur
Mannargudi Temple Tank,10.4665,79.4498,Tiruvarur
Thiruveezhimalai Lake,10.8315,79.6815,Tiruvarur
Muthupet Lagoon Sunset Point,10.3968,79.4948,Tiruvarur
Mannargudi Temple Tower View,10.4669,79.4503,Tiruvarur
Paddy Fields Tour (Rice Bowl),10.65,79.55,Tiruvarur
Traditional Farming Village Visit,10.7,79.6,Tiruvarur
Tiruvarur Heritage Walk,10.7715,79.6372,Tiruvarur
Temple Architecture Tour,10.72,79.58,Tiruvarur
Fishing Village Experience Muthupet,10.3955,79.4945,Tiruvarur
Wooden Walkway Muthupet (162m),10.3962,79.4946,Tiruvarur
Tiruvarur to Mannargudi Temple Circuit,10.62,79.54,Tiruvarur